var settelment ={
"type": "FeatureCollection",
"name": "settlement",
"crs": { "type": "name", "properties": { "name": "urn:ogc:def:crs:OGC:1.3:CRS84" } },
"features": [
{ "type": "Feature", "properties": { "OBJECTID_1": 1, "OBJECTID": 52882, "VIL_NAME_": 4.0, "VIL_NAME_I": 3.0, "VIL_NAME": "Biruwa", "WNO": 6, "VCODE": 4, "DCODE": 22, "VDC_NAME": "Bhimeswor N.P.", "DIST_NAME": "Dolakha", "CONSTITUEN": 2.0, "ILAKA": 8, "id": 0, "Nepali": null }, "geometry": { "type": "Point", "coordinates": [ 86.07343233242014, 27.623647703424297 ] } },
{ "type": "Feature", "properties": { "OBJECTID_1": 2, "OBJECTID": 52884, "VIL_NAME_": 6.0, "VIL_NAME_I": 5.0, "VIL_NAME": "Nayanpul", "WNO": 6, "VCODE": 4, "DCODE": 22, "VDC_NAME": "Bhimeswor N.P.", "DIST_NAME": "Dolakha", "CONSTITUEN": 2.0, "ILAKA": 8, "id": 0, "Nepali": null }, "geometry": { "type": "Point", "coordinates": [ 86.075798024123955, 27.622415850098307 ] } },
{ "type": "Feature", "properties": { "OBJECTID_1": 3, "OBJECTID": 52898, "VIL_NAME_": 20.0, "VIL_NAME_I": 19.0, "VIL_NAME": "Charange", "WNO": 6, "VCODE": 4, "DCODE": 22, "VDC_NAME": "Bhimeswor N.P.", "DIST_NAME": "Dolakha", "CONSTITUEN": 2.0, "ILAKA": 8, "id": 0, "Nepali": null }, "geometry": { "type": "Point", "coordinates": [ 86.069708955561993, 27.615694786661177 ] } },
{ "type": "Feature", "properties": { "OBJECTID_1": 4, "OBJECTID": 55391, "VIL_NAME_": 19.0, "VIL_NAME_I": 18.0, "VIL_NAME": "Wosimpa", "WNO": 1, "VCODE": 49, "DCODE": 22, "VDC_NAME": "SusmaChhemawati", "DIST_NAME": "Dolakha", "CONSTITUEN": 2.0, "ILAKA": 9, "id": 0, "Nepali": null }, "geometry": { "type": "Point", "coordinates": [ 86.050841818062523, 27.722160736460573 ] } },
{ "type": "Feature", "properties": { "OBJECTID_1": 5, "OBJECTID": 55399, "VIL_NAME_": 27.0, "VIL_NAME_I": 26.0, "VIL_NAME": "Buma", "WNO": 1, "VCODE": 49, "DCODE": 22, "VDC_NAME": "SusmaChhemawati", "DIST_NAME": "Dolakha", "CONSTITUEN": 2.0, "ILAKA": 9, "id": 0, "Nepali": null }, "geometry": { "type": "Point", "coordinates": [ 86.057614957439554, 27.713358667647586 ] } },
{ "type": "Feature", "properties": { "OBJECTID_1": 6, "OBJECTID": 55402, "VIL_NAME_": 30.0, "VIL_NAME_I": 29.0, "VIL_NAME": "Mane", "WNO": 2, "VCODE": 49, "DCODE": 22, "VDC_NAME": "SusmaChhemawati", "DIST_NAME": "Dolakha", "CONSTITUEN": 2.0, "ILAKA": 9, "id": 0, "Nepali": null }, "geometry": { "type": "Point", "coordinates": [ 86.061230843700201, 27.709660695440341 ] } },
{ "type": "Feature", "properties": { "OBJECTID_1": 7, "OBJECTID": 55404, "VIL_NAME_": 32.0, "VIL_NAME_I": 31.0, "VIL_NAME": "Thulo Nagi", "WNO": 13, "VCODE": 4, "DCODE": 22, "VDC_NAME": "Bhimeswor N.P.", "DIST_NAME": "Dolakha", "CONSTITUEN": 2.0, "ILAKA": 8, "id": 0, "Nepali": null }, "geometry": { "type": "Point", "coordinates": [ 85.99894622020841, 27.708714453511853 ] } },
{ "type": "Feature", "properties": { "OBJECTID_1": 8, "OBJECTID": 55405, "VIL_NAME_": 33.0, "VIL_NAME_I": 32.0, "VIL_NAME": "Pahare", "WNO": 7, "VCODE": 49, "DCODE": 22, "VDC_NAME": "SusmaChhemawati", "DIST_NAME": "Dolakha", "CONSTITUEN": 2.0, "ILAKA": 9, "id": 0, "Nepali": null }, "geometry": { "type": "Point", "coordinates": [ 86.051376686551436, 27.708325604189049 ] } },
{ "type": "Feature", "properties": { "OBJECTID_1": 9, "OBJECTID": 55407, "VIL_NAME_": 35.0, "VIL_NAME_I": 34.0, "VIL_NAME": "Siling", "WNO": 13, "VCODE": 4, "DCODE": 22, "VDC_NAME": "Bhimeswor N.P.", "DIST_NAME": "Dolakha", "CONSTITUEN": 2.0, "ILAKA": 8, "id": 0, "Nepali": null }, "geometry": { "type": "Point", "coordinates": [ 86.007467124540682, 27.706598701600747 ] } },
{ "type": "Feature", "properties": { "OBJECTID_1": 10, "OBJECTID": 55408, "VIL_NAME_": 36.0, "VIL_NAME_I": 35.0, "VIL_NAME": "Phalante", "WNO": 8, "VCODE": 49, "DCODE": 22, "VDC_NAME": "SusmaChhemawati", "DIST_NAME": "Dolakha", "CONSTITUEN": 2.0, "ILAKA": 9, "id": 0, "Nepali": null }, "geometry": { "type": "Point", "coordinates": [ 86.026203374857459, 27.70508482110068 ] } },
{ "type": "Feature", "properties": { "OBJECTID_1": 11, "OBJECTID": 55410, "VIL_NAME_": 38.0, "VIL_NAME_I": 37.0, "VIL_NAME": "Simcha", "WNO": 8, "VCODE": 49, "DCODE": 22, "VDC_NAME": "SusmaChhemawati", "DIST_NAME": "Dolakha", "CONSTITUEN": 2.0, "ILAKA": 9, "id": 0, "Nepali": null }, "geometry": { "type": "Point", "coordinates": [ 86.038232276780732, 27.704343177325867 ] } },
{ "type": "Feature", "properties": { "OBJECTID_1": 12, "OBJECTID": 55412, "VIL_NAME_": 40.0, "VIL_NAME_I": 39.0, "VIL_NAME": "Ksamawati", "WNO": 7, "VCODE": 49, "DCODE": 22, "VDC_NAME": "SusmaChhemawati", "DIST_NAME": "Dolakha", "CONSTITUEN": 2.0, "ILAKA": 9, "id": 0, "Nepali": null }, "geometry": { "type": "Point", "coordinates": [ 86.057342790552198, 27.703217967674885 ] } },
{ "type": "Feature", "properties": { "OBJECTID_1": 13, "OBJECTID": 55413, "VIL_NAME_": 41.0, "VIL_NAME_I": 40.0, "VIL_NAME": "Tari", "WNO": 3, "VCODE": 49, "DCODE": 22, "VDC_NAME": "SusmaChhemawati", "DIST_NAME": "Dolakha", "CONSTITUEN": 2.0, "ILAKA": 9, "id": 0, "Nepali": null }, "geometry": { "type": "Point", "coordinates": [ 86.066098483420404, 27.703272789049286 ] } },
{ "type": "Feature", "properties": { "OBJECTID_1": 14, "OBJECTID": 55417, "VIL_NAME_": 45.0, "VIL_NAME_I": 44.0, "VIL_NAME": "Suspa", "WNO": 6, "VCODE": 49, "DCODE": 22, "VDC_NAME": "SusmaChhemawati", "DIST_NAME": "Dolakha", "CONSTITUEN": 2.0, "ILAKA": 9, "id": 0, "Nepali": null }, "geometry": { "type": "Point", "coordinates": [ 86.039797431884793, 27.700951871848588 ] } },
{ "type": "Feature", "properties": { "OBJECTID_1": 15, "OBJECTID": 55419, "VIL_NAME_": 47.0, "VIL_NAME_I": 46.0, "VIL_NAME": "Lamanagi", "WNO": 8, "VCODE": 49, "DCODE": 22, "VDC_NAME": "SusmaChhemawati", "DIST_NAME": "Dolakha", "CONSTITUEN": 2.0, "ILAKA": 9, "id": 0, "Nepali": null }, "geometry": { "type": "Point", "coordinates": [ 86.034236928394137, 27.700186743388102 ] } },
{ "type": "Feature", "properties": { "OBJECTID_1": 16, "OBJECTID": 55421, "VIL_NAME_": 49.0, "VIL_NAME_I": 48.0, "VIL_NAME": "Rojinai", "WNO": 13, "VCODE": 4, "DCODE": 22, "VDC_NAME": "Bhimeswor N.P.", "DIST_NAME": "Dolakha", "CONSTITUEN": 2.0, "ILAKA": 8, "id": 0, "Nepali": null }, "geometry": { "type": "Point", "coordinates": [ 86.0051377041721, 27.698586480850331 ] } },
{ "type": "Feature", "properties": { "OBJECTID_1": 17, "OBJECTID": 55425, "VIL_NAME_": 53.0, "VIL_NAME_I": 52.0, "VIL_NAME": "Phaselung", "WNO": 5, "VCODE": 49, "DCODE": 22, "VDC_NAME": "SusmaChhemawati", "DIST_NAME": "Dolakha", "CONSTITUEN": 2.0, "ILAKA": 9, "id": 0, "Nepali": null }, "geometry": { "type": "Point", "coordinates": [ 86.050333480544211, 27.695673098582013 ] } },
{ "type": "Feature", "properties": { "OBJECTID_1": 18, "OBJECTID": 55427, "VIL_NAME_": 55.0, "VIL_NAME_I": 54.0, "VIL_NAME": "Phulauni", "WNO": 9, "VCODE": 49, "DCODE": 22, "VDC_NAME": "SusmaChhemawati", "DIST_NAME": "Dolakha", "CONSTITUEN": 2.0, "ILAKA": 9, "id": 0, "Nepali": null }, "geometry": { "type": "Point", "coordinates": [ 86.021670665369413, 27.694546327429663 ] } },
{ "type": "Feature", "properties": { "OBJECTID_1": 19, "OBJECTID": 55428, "VIL_NAME_": 56.0, "VIL_NAME_I": 55.0, "VIL_NAME": "Batokharka", "WNO": 9, "VCODE": 49, "DCODE": 22, "VDC_NAME": "SusmaChhemawati", "DIST_NAME": "Dolakha", "CONSTITUEN": 2.0, "ILAKA": 9, "id": 0, "Nepali": null }, "geometry": { "type": "Point", "coordinates": [ 86.028786445787404, 27.693874468482218 ] } },
{ "type": "Feature", "properties": { "OBJECTID_1": 20, "OBJECTID": 55430, "VIL_NAME_": 58.0, "VIL_NAME_I": 57.0, "VIL_NAME": "Rampa", "WNO": 3, "VCODE": 4, "DCODE": 22, "VDC_NAME": "Bhimeswor N.P.", "DIST_NAME": "Dolakha", "CONSTITUEN": 2.0, "ILAKA": 8, "id": 0, "Nepali": null }, "geometry": { "type": "Point", "coordinates": [ 86.066462452264645, 27.692076003593773 ] } },
{ "type": "Feature", "properties": { "OBJECTID_1": 21, "OBJECTID": 55431, "VIL_NAME_": 59.0, "VIL_NAME_I": 58.0, "VIL_NAME": "Sakhine", "WNO": 13, "VCODE": 4, "DCODE": 22, "VDC_NAME": "Bhimeswor N.P.", "DIST_NAME": "Dolakha", "CONSTITUEN": 2.0, "ILAKA": 8, "id": 0, "Nepali": null }, "geometry": { "type": "Point", "coordinates": [ 86.002461340672113, 27.690962019571902 ] } },
{ "type": "Feature", "properties": { "OBJECTID_1": 22, "OBJECTID": 55433, "VIL_NAME_": 61.0, "VIL_NAME_I": 60.0, "VIL_NAME": "Damna", "WNO": 13, "VCODE": 4, "DCODE": 22, "VDC_NAME": "Bhimeswor N.P.", "DIST_NAME": "Dolakha", "CONSTITUEN": 2.0, "ILAKA": 8, "id": 0, "Nepali": null }, "geometry": { "type": "Point", "coordinates": [ 86.005101990295287, 27.687290080917332 ] } },
{ "type": "Feature", "properties": { "OBJECTID_1": 23, "OBJECTID": 55435, "VIL_NAME_": 63.0, "VIL_NAME_I": 62.0, "VIL_NAME": "Dokthali", "WNO": 3, "VCODE": 4, "DCODE": 22, "VDC_NAME": "Bhimeswor N.P.", "DIST_NAME": "Dolakha", "CONSTITUEN": 2.0, "ILAKA": 8, "id": 0, "Nepali": null }, "geometry": { "type": "Point", "coordinates": [ 86.079769556515046, 27.687003105417986 ] } },
{ "type": "Feature", "properties": { "OBJECTID_1": 24, "OBJECTID": 55436, "VIL_NAME_": 64.0, "VIL_NAME_I": 63.0, "VIL_NAME": "Chathali", "WNO": 3, "VCODE": 4, "DCODE": 22, "VDC_NAME": "Bhimeswor N.P.", "DIST_NAME": "Dolakha", "CONSTITUEN": 2.0, "ILAKA": 8, "id": 0, "Nepali": null }, "geometry": { "type": "Point", "coordinates": [ 86.068278879600186, 27.686204338946464 ] } },
{ "type": "Feature", "properties": { "OBJECTID_1": 25, "OBJECTID": 55437, "VIL_NAME_": 65.0, "VIL_NAME_I": 64.0, "VIL_NAME": "Gauda", "WNO": 12, "VCODE": 4, "DCODE": 22, "VDC_NAME": "Bhimeswor N.P.", "DIST_NAME": "Dolakha", "CONSTITUEN": 2.0, "ILAKA": 8, "id": 0, "Nepali": null }, "geometry": { "type": "Point", "coordinates": [ 86.018275854002937, 27.683891671635717 ] } },
{ "type": "Feature", "properties": { "OBJECTID_1": 26, "OBJECTID": 55438, "VIL_NAME_": 66.0, "VIL_NAME_I": 65.0, "VIL_NAME": "Makaibari", "WNO": 13, "VCODE": 4, "DCODE": 22, "VDC_NAME": "Bhimeswor N.P.", "DIST_NAME": "Dolakha", "CONSTITUEN": 2.0, "ILAKA": 8, "id": 0, "Nepali": null }, "geometry": { "type": "Point", "coordinates": [ 86.008951870085326, 27.682681447635037 ] } },
{ "type": "Feature", "properties": { "OBJECTID_1": 27, "OBJECTID": 55440, "VIL_NAME_": 68.0, "VIL_NAME_I": 67.0, "VIL_NAME": "Puwanle", "WNO": 12, "VCODE": 4, "DCODE": 22, "VDC_NAME": "Bhimeswor N.P.", "DIST_NAME": "Dolakha", "CONSTITUEN": 2.0, "ILAKA": 8, "id": 0, "Nepali": null }, "geometry": { "type": "Point", "coordinates": [ 86.024820434884518, 27.679294883332624 ] } },
{ "type": "Feature", "properties": { "OBJECTID_1": 28, "OBJECTID": 55441, "VIL_NAME_": 69.0, "VIL_NAME_I": 68.0, "VIL_NAME": "Dolakha", "WNO": 3, "VCODE": 4, "DCODE": 22, "VDC_NAME": "Bhimeswor N.P.", "DIST_NAME": "Dolakha", "CONSTITUEN": 2.0, "ILAKA": 8, "id": 0, "Nepali": null }, "geometry": { "type": "Point", "coordinates": [ 86.077536897110519, 27.678800865624503 ] } },
{ "type": "Feature", "properties": { "OBJECTID_1": 29, "OBJECTID": 55442, "VIL_NAME_": 70.0, "VIL_NAME_I": 69.0, "VIL_NAME": "Lektol", "WNO": 10, "VCODE": 4, "DCODE": 22, "VDC_NAME": "Bhimeswor N.P.", "DIST_NAME": "Dolakha", "CONSTITUEN": 2.0, "ILAKA": 8, "id": 0, "Nepali": null }, "geometry": { "type": "Point", "coordinates": [ 86.038540965492075, 27.678298837292441 ] } },
{ "type": "Feature", "properties": { "OBJECTID_1": 30, "OBJECTID": 55443, "VIL_NAME_": 71.0, "VIL_NAME_I": 70.0, "VIL_NAME": "Thakurigaun", "WNO": 12, "VCODE": 4, "DCODE": 22, "VDC_NAME": "Bhimeswor N.P.", "DIST_NAME": "Dolakha", "CONSTITUEN": 2.0, "ILAKA": 8, "id": 0, "Nepali": null }, "geometry": { "type": "Point", "coordinates": [ 86.018926384161617, 27.677599563184593 ] } },
{ "type": "Feature", "properties": { "OBJECTID_1": 31, "OBJECTID": 55445, "VIL_NAME_": 73.0, "VIL_NAME_I": 72.0, "VIL_NAME": "Nagdah", "WNO": 4, "VCODE": 4, "DCODE": 22, "VDC_NAME": "Bhimeswor N.P.", "DIST_NAME": "Dolakha", "CONSTITUEN": 2.0, "ILAKA": 8, "id": 0, "Nepali": null }, "geometry": { "type": "Point", "coordinates": [ 86.102424563936111, 27.677436954588167 ] } },
{ "type": "Feature", "properties": { "OBJECTID_1": 32, "OBJECTID": 55446, "VIL_NAME_": 74.0, "VIL_NAME_I": 73.0, "VIL_NAME": "Pakhatol", "WNO": 1, "VCODE": 4, "DCODE": 22, "VDC_NAME": "Bhimeswor N.P.", "DIST_NAME": "Dolakha", "CONSTITUEN": 2.0, "ILAKA": 8, "id": 0, "Nepali": null }, "geometry": { "type": "Point", "coordinates": [ 86.05324863129087, 27.67609439854353 ] } },
{ "type": "Feature", "properties": { "OBJECTID_1": 33, "OBJECTID": 55447, "VIL_NAME_": 75.0, "VIL_NAME_I": 74.0, "VIL_NAME": "Phulapa", "WNO": 4, "VCODE": 4, "DCODE": 22, "VDC_NAME": "Bhimeswor N.P.", "DIST_NAME": "Dolakha", "CONSTITUEN": 2.0, "ILAKA": 8, "id": 0, "Nepali": null }, "geometry": { "type": "Point", "coordinates": [ 86.085233603651261, 27.676115243622473 ] } },
{ "type": "Feature", "properties": { "OBJECTID_1": 34, "OBJECTID": 55448, "VIL_NAME_": 76.0, "VIL_NAME_I": 75.0, "VIL_NAME": "Tikhatal", "WNO": 2, "VCODE": 4, "DCODE": 22, "VDC_NAME": "Bhimeswor N.P.", "DIST_NAME": "Dolakha", "CONSTITUEN": 2.0, "ILAKA": 8, "id": 0, "Nepali": null }, "geometry": { "type": "Point", "coordinates": [ 86.060762015375275, 27.674516633682664 ] } },
{ "type": "Feature", "properties": { "OBJECTID_1": 35, "OBJECTID": 55449, "VIL_NAME_": 77.0, "VIL_NAME_I": 76.0, "VIL_NAME": "Serabesi", "WNO": 6, "VCODE": 8, "DCODE": 22, "VDC_NAME": "Bocha", "DIST_NAME": "Dolakha", "CONSTITUEN": 2.0, "ILAKA": 8, "id": 0, "Nepali": null }, "geometry": { "type": "Point", "coordinates": [ 85.998660760402657, 27.673851624545481 ] } },
{ "type": "Feature", "properties": { "OBJECTID_1": 36, "OBJECTID": 55450, "VIL_NAME_": 78.0, "VIL_NAME_I": 77.0, "VIL_NAME": "Nyagal", "WNO": 4, "VCODE": 4, "DCODE": 22, "VDC_NAME": "Bhimeswor N.P.", "DIST_NAME": "Dolakha", "CONSTITUEN": 2.0, "ILAKA": 8, "id": 0, "Nepali": null }, "geometry": { "type": "Point", "coordinates": [ 86.093583868822236, 27.674412614999802 ] } },
{ "type": "Feature", "properties": { "OBJECTID_1": 37, "OBJECTID": 55451, "VIL_NAME_": 79.0, "VIL_NAME_I": 78.0, "VIL_NAME": "Bahungaun", "WNO": 12, "VCODE": 4, "DCODE": 22, "VDC_NAME": "Bhimeswor N.P.", "DIST_NAME": "Dolakha", "CONSTITUEN": 2.0, "ILAKA": 8, "id": 0, "Nepali": null }, "geometry": { "type": "Point", "coordinates": [ 86.01346691914641, 27.673741253538473 ] } },
{ "type": "Feature", "properties": { "OBJECTID_1": 38, "OBJECTID": 55452, "VIL_NAME_": 80.0, "VIL_NAME_I": 79.0, "VIL_NAME": "Kutidanda", "WNO": 12, "VCODE": 4, "DCODE": 22, "VDC_NAME": "Bhimeswor N.P.", "DIST_NAME": "Dolakha", "CONSTITUEN": 2.0, "ILAKA": 8, "id": 0, "Nepali": null }, "geometry": { "type": "Point", "coordinates": [ 86.017582521857619, 27.673150073715277 ] } },
{ "type": "Feature", "properties": { "OBJECTID_1": 39, "OBJECTID": 55453, "VIL_NAME_": 81.0, "VIL_NAME_I": 80.0, "VIL_NAME": "Gairaswanra", "WNO": 10, "VCODE": 4, "DCODE": 22, "VDC_NAME": "Bhimeswor N.P.", "DIST_NAME": "Dolakha", "CONSTITUEN": 2.0, "ILAKA": 8, "id": 0, "Nepali": null }, "geometry": { "type": "Point", "coordinates": [ 86.037456650575749, 27.673057184251633 ] } },
{ "type": "Feature", "properties": { "OBJECTID_1": 40, "OBJECTID": 55454, "VIL_NAME_": 82.0, "VIL_NAME_I": 81.0, "VIL_NAME": "Tandi", "WNO": 11, "VCODE": 4, "DCODE": 22, "VDC_NAME": "Bhimeswor N.P.", "DIST_NAME": "Dolakha", "CONSTITUEN": 2.0, "ILAKA": 8, "id": 0, "Nepali": null }, "geometry": { "type": "Point", "coordinates": [ 86.005875951442775, 27.670424709992474 ] } },
{ "type": "Feature", "properties": { "OBJECTID_1": 41, "OBJECTID": 55455, "VIL_NAME_": 83.0, "VIL_NAME_I": 82.0, "VIL_NAME": "Chothang", "WNO": 10, "VCODE": 4, "DCODE": 22, "VDC_NAME": "Bhimeswor N.P.", "DIST_NAME": "Dolakha", "CONSTITUEN": 2.0, "ILAKA": 8, "id": 0, "Nepali": null }, "geometry": { "type": "Point", "coordinates": [ 86.033458994993708, 27.670227294220325 ] } },
{ "type": "Feature", "properties": { "OBJECTID_1": 42, "OBJECTID": 55456, "VIL_NAME_": 84.0, "VIL_NAME_I": 83.0, "VIL_NAME": "Gautamtol", "WNO": 1, "VCODE": 4, "DCODE": 22, "VDC_NAME": "Bhimeswor N.P.", "DIST_NAME": "Dolakha", "CONSTITUEN": 2.0, "ILAKA": 8, "id": 0, "Nepali": null }, "geometry": { "type": "Point", "coordinates": [ 86.056085238400456, 27.670317842459877 ] } },
{ "type": "Feature", "properties": { "OBJECTID_1": 43, "OBJECTID": 55458, "VIL_NAME_": 86.0, "VIL_NAME_I": 85.0, "VIL_NAME": "Dahaltol", "WNO": 11, "VCODE": 4, "DCODE": 22, "VDC_NAME": "Bhimeswor N.P.", "DIST_NAME": "Dolakha", "CONSTITUEN": 2.0, "ILAKA": 8, "id": 0, "Nepali": null }, "geometry": { "type": "Point", "coordinates": [ 86.017058144436334, 27.669130529720093 ] } },
{ "type": "Feature", "properties": { "OBJECTID_1": 44, "OBJECTID": 55459, "VIL_NAME_": 87.0, "VIL_NAME_I": 86.0, "VIL_NAME": "Tarthali", "WNO": 1, "VCODE": 4, "DCODE": 22, "VDC_NAME": "Bhimeswor N.P.", "DIST_NAME": "Dolakha", "CONSTITUEN": 2.0, "ILAKA": 8, "id": 0, "Nepali": null }, "geometry": { "type": "Point", "coordinates": [ 86.057145897242776, 27.668601405443891 ] } },
{ "type": "Feature", "properties": { "OBJECTID_1": 45, "OBJECTID": 55460, "VIL_NAME_": 88.0, "VIL_NAME_I": 87.0, "VIL_NAME": "Charikot", "WNO": 1, "VCODE": 4, "DCODE": 22, "VDC_NAME": "Bhimeswor N.P.", "DIST_NAME": "Dolakha", "CONSTITUEN": 2.0, "ILAKA": 8, "id": 0, "Nepali": null }, "geometry": { "type": "Point", "coordinates": [ 86.053139774207992, 27.66803488307551 ] } },
{ "type": "Feature", "properties": { "OBJECTID_1": 46, "OBJECTID": 55461, "VIL_NAME_": 89.0, "VIL_NAME_I": 88.0, "VIL_NAME": "Ramkot", "WNO": 10, "VCODE": 4, "DCODE": 22, "VDC_NAME": "Bhimeswor N.P.", "DIST_NAME": "Dolakha", "CONSTITUEN": 2.0, "ILAKA": 8, "id": 0, "Nepali": null }, "geometry": { "type": "Point", "coordinates": [ 86.041240376960488, 27.667395811314357 ] } },
{ "type": "Feature", "properties": { "OBJECTID_1": 47, "OBJECTID": 55462, "VIL_NAME_": 90.0, "VIL_NAME_I": 89.0, "VIL_NAME": "Kupri", "WNO": 11, "VCODE": 4, "DCODE": 22, "VDC_NAME": "Bhimeswor N.P.", "DIST_NAME": "Dolakha", "CONSTITUEN": 2.0, "ILAKA": 8, "id": 0, "Nepali": null }, "geometry": { "type": "Point", "coordinates": [ 86.015355318896169, 27.66580651135088 ] } },
{ "type": "Feature", "properties": { "OBJECTID_1": 48, "OBJECTID": 55465, "VIL_NAME_": 93.0, "VIL_NAME_I": 92.0, "VIL_NAME": "Ukhubari", "WNO": 10, "VCODE": 4, "DCODE": 22, "VDC_NAME": "Bhimeswor N.P.", "DIST_NAME": "Dolakha", "CONSTITUEN": 2.0, "ILAKA": 8, "id": 0, "Nepali": null }, "geometry": { "type": "Point", "coordinates": [ 86.029470123118145, 27.664669743423996 ] } },
{ "type": "Feature", "properties": { "OBJECTID_1": 49, "OBJECTID": 55467, "VIL_NAME_": 95.0, "VIL_NAME_I": 94.0, "VIL_NAME": "Chitamthali", "WNO": 10, "VCODE": 4, "DCODE": 22, "VDC_NAME": "Bhimeswor N.P.", "DIST_NAME": "Dolakha", "CONSTITUEN": 2.0, "ILAKA": 8, "id": 0, "Nepali": null }, "geometry": { "type": "Point", "coordinates": [ 86.044702666972654, 27.663031619060565 ] } },
{ "type": "Feature", "properties": { "OBJECTID_1": 50, "OBJECTID": 55469, "VIL_NAME_": 97.0, "VIL_NAME_I": 96.0, "VIL_NAME": "Saharpa", "WNO": 1, "VCODE": 4, "DCODE": 22, "VDC_NAME": "Bhimeswor N.P.", "DIST_NAME": "Dolakha", "CONSTITUEN": 2.0, "ILAKA": 8, "id": 0, "Nepali": null }, "geometry": { "type": "Point", "coordinates": [ 86.064188527738068, 27.660680593355853 ] } },
{ "type": "Feature", "properties": { "OBJECTID_1": 51, "OBJECTID": 55470, "VIL_NAME_": 98.0, "VIL_NAME_I": 97.0, "VIL_NAME": "Charighyang", "WNO": 1, "VCODE": 4, "DCODE": 22, "VDC_NAME": "Bhimeswor N.P.", "DIST_NAME": "Dolakha", "CONSTITUEN": 2.0, "ILAKA": 8, "id": 0, "Nepali": null }, "geometry": { "type": "Point", "coordinates": [ 86.050477198468613, 27.660154167603299 ] } },
{ "type": "Feature", "properties": { "OBJECTID_1": 52, "OBJECTID": 55471, "VIL_NAME_": 99.0, "VIL_NAME_I": 98.0, "VIL_NAME": "Phurlung", "WNO": 11, "VCODE": 4, "DCODE": 22, "VDC_NAME": "Bhimeswor N.P.", "DIST_NAME": "Dolakha", "CONSTITUEN": 2.0, "ILAKA": 8, "id": 0, "Nepali": null }, "geometry": { "type": "Point", "coordinates": [ 86.013423639988176, 27.659444155875601 ] } },
{ "type": "Feature", "properties": { "OBJECTID_1": 53, "OBJECTID": 55472, "VIL_NAME_": 100.0, "VIL_NAME_I": 99.0, "VIL_NAME": "Kaule", "WNO": 11, "VCODE": 4, "DCODE": 22, "VDC_NAME": "Bhimeswor N.P.", "DIST_NAME": "Dolakha", "CONSTITUEN": 2.0, "ILAKA": 8, "id": 0, "Nepali": null }, "geometry": { "type": "Point", "coordinates": [ 86.027665424675106, 27.658863457566053 ] } },
{ "type": "Feature", "properties": { "OBJECTID_1": 54, "OBJECTID": 55473, "VIL_NAME_": 101.0, "VIL_NAME_I": 100.0, "VIL_NAME": "Chisapani", "WNO": 1, "VCODE": 4, "DCODE": 22, "VDC_NAME": "Bhimeswor N.P.", "DIST_NAME": "Dolakha", "CONSTITUEN": 2.0, "ILAKA": 8, "id": 0, "Nepali": null }, "geometry": { "type": "Point", "coordinates": [ 86.05757335799241, 27.658501499618634 ] } },
{ "type": "Feature", "properties": { "OBJECTID_1": 55, "OBJECTID": 55474, "VIL_NAME_": 102.0, "VIL_NAME_I": 101.0, "VIL_NAME": "Suplung", "WNO": 5, "VCODE": 4, "DCODE": 22, "VDC_NAME": "Bhimeswor N.P.", "DIST_NAME": "Dolakha", "CONSTITUEN": 2.0, "ILAKA": 8, "id": 0, "Nepali": null }, "geometry": { "type": "Point", "coordinates": [ 86.071841985535329, 27.655800208381866 ] } },
{ "type": "Feature", "properties": { "OBJECTID_1": 56, "OBJECTID": 55475, "VIL_NAME_": 103.0, "VIL_NAME_I": 102.0, "VIL_NAME": "Dandagaun", "WNO": 7, "VCODE": 4, "DCODE": 22, "VDC_NAME": "Bhimeswor N.P.", "DIST_NAME": "Dolakha", "CONSTITUEN": 2.0, "ILAKA": 8, "id": 0, "Nepali": null }, "geometry": { "type": "Point", "coordinates": [ 86.066520346666792, 27.654631908272734 ] } },
{ "type": "Feature", "properties": { "OBJECTID_1": 57, "OBJECTID": 55476, "VIL_NAME_": 104.0, "VIL_NAME_I": 103.0, "VIL_NAME": "Dihi", "WNO": 5, "VCODE": 4, "DCODE": 22, "VDC_NAME": "Bhimeswor N.P.", "DIST_NAME": "Dolakha", "CONSTITUEN": 2.0, "ILAKA": 8, "id": 0, "Nepali": null }, "geometry": { "type": "Point", "coordinates": [ 86.081413979680278, 27.65376127393764 ] } },
{ "type": "Feature", "properties": { "OBJECTID_1": 58, "OBJECTID": 55478, "VIL_NAME_": 106.0, "VIL_NAME_I": 105.0, "VIL_NAME": "Mathillo Mati", "WNO": 8, "VCODE": 4, "DCODE": 22, "VDC_NAME": "Bhimeswor N.P.", "DIST_NAME": "Dolakha", "CONSTITUEN": 2.0, "ILAKA": 8, "id": 0, "Nepali": null }, "geometry": { "type": "Point", "coordinates": [ 86.051128927560157, 27.652718015857864 ] } },
{ "type": "Feature", "properties": { "OBJECTID_1": 59, "OBJECTID": 55479, "VIL_NAME_": 107.0, "VIL_NAME_I": 106.0, "VIL_NAME": "Jilu", "WNO": 5, "VCODE": 4, "DCODE": 22, "VDC_NAME": "Bhimeswor N.P.", "DIST_NAME": "Dolakha", "CONSTITUEN": 2.0, "ILAKA": 8, "id": 0, "Nepali": null }, "geometry": { "type": "Point", "coordinates": [ 86.068586812668883, 27.651836955356785 ] } },
{ "type": "Feature", "properties": { "OBJECTID_1": 60, "OBJECTID": 55480, "VIL_NAME_": 108.0, "VIL_NAME_I": 107.0, "VIL_NAME": "Piple", "WNO": 7, "VCODE": 4, "DCODE": 22, "VDC_NAME": "Bhimeswor N.P.", "DIST_NAME": "Dolakha", "CONSTITUEN": 2.0, "ILAKA": 8, "id": 0, "Nepali": null }, "geometry": { "type": "Point", "coordinates": [ 86.063658964468445, 27.651163025305433 ] } },
{ "type": "Feature", "properties": { "OBJECTID_1": 61, "OBJECTID": 55486, "VIL_NAME_": 114.0, "VIL_NAME_I": 113.0, "VIL_NAME": "Mathane", "WNO": 9, "VCODE": 4, "DCODE": 22, "VDC_NAME": "Bhimeswor N.P.", "DIST_NAME": "Dolakha", "CONSTITUEN": 2.0, "ILAKA": 8, "id": 0, "Nepali": null }, "geometry": { "type": "Point", "coordinates": [ 86.03806921346623, 27.649329597735203 ] } },
{ "type": "Feature", "properties": { "OBJECTID_1": 62, "OBJECTID": 55487, "VIL_NAME_": 115.0, "VIL_NAME_I": 114.0, "VIL_NAME": "Phasimai", "WNO": 5, "VCODE": 4, "DCODE": 22, "VDC_NAME": "Bhimeswor N.P.", "DIST_NAME": "Dolakha", "CONSTITUEN": 2.0, "ILAKA": 8, "id": 0, "Nepali": null }, "geometry": { "type": "Point", "coordinates": [ 86.079331838605952, 27.648289927757787 ] } },
{ "type": "Feature", "properties": { "OBJECTID_1": 63, "OBJECTID": 55488, "VIL_NAME_": 116.0, "VIL_NAME_I": 115.0, "VIL_NAME": "Bisuntol", "WNO": 9, "VCODE": 4, "DCODE": 22, "VDC_NAME": "Bhimeswor N.P.", "DIST_NAME": "Dolakha", "CONSTITUEN": 2.0, "ILAKA": 8, "id": 0, "Nepali": null }, "geometry": { "type": "Point", "coordinates": [ 86.032956405570346, 27.647829823166219 ] } },
{ "type": "Feature", "properties": { "OBJECTID_1": 64, "OBJECTID": 55489, "VIL_NAME_": 117.0, "VIL_NAME_I": 116.0, "VIL_NAME": "Kole", "WNO": 5, "VCODE": 4, "DCODE": 22, "VDC_NAME": "Bhimeswor N.P.", "DIST_NAME": "Dolakha", "CONSTITUEN": 2.0, "ILAKA": 8, "id": 0, "Nepali": null }, "geometry": { "type": "Point", "coordinates": [ 86.074492703021676, 27.648072708297132 ] } },
{ "type": "Feature", "properties": { "OBJECTID_1": 65, "OBJECTID": 55490, "VIL_NAME_": 118.0, "VIL_NAME_I": 117.0, "VIL_NAME": "Mati", "WNO": 8, "VCODE": 4, "DCODE": 22, "VDC_NAME": "Bhimeswor N.P.", "DIST_NAME": "Dolakha", "CONSTITUEN": 2.0, "ILAKA": 8, "id": 0, "Nepali": null }, "geometry": { "type": "Point", "coordinates": [ 86.052816189108739, 27.647073506757138 ] } },
{ "type": "Feature", "properties": { "OBJECTID_1": 66, "OBJECTID": 55492, "VIL_NAME_": 120.0, "VIL_NAME_I": 119.0, "VIL_NAME": "Sunkhanidanda", "WNO": 8, "VCODE": 4, "DCODE": 22, "VDC_NAME": "Bhimeswor N.P.", "DIST_NAME": "Dolakha", "CONSTITUEN": 2.0, "ILAKA": 8, "id": 0, "Nepali": null }, "geometry": { "type": "Point", "coordinates": [ 86.049627318871686, 27.644818143698213 ] } },
{ "type": "Feature", "properties": { "OBJECTID_1": 67, "OBJECTID": 55499, "VIL_NAME_": 127.0, "VIL_NAME_I": 126.0, "VIL_NAME": "Dangalpu", "WNO": 6, "VCODE": 4, "DCODE": 22, "VDC_NAME": "Bhimeswor N.P.", "DIST_NAME": "Dolakha", "CONSTITUEN": 2.0, "ILAKA": 8, "id": 0, "Nepali": null }, "geometry": { "type": "Point", "coordinates": [ 86.067356397550753, 27.639519354396185 ] } },
{ "type": "Feature", "properties": { "OBJECTID_1": 68, "OBJECTID": 55500, "VIL_NAME_": 128.0, "VIL_NAME_I": 127.0, "VIL_NAME": "Kattike", "WNO": 6, "VCODE": 4, "DCODE": 22, "VDC_NAME": "Bhimeswor N.P.", "DIST_NAME": "Dolakha", "CONSTITUEN": 2.0, "ILAKA": 8, "id": 0, "Nepali": null }, "geometry": { "type": "Point", "coordinates": [ 86.081772090387716, 27.63905829799743 ] } },
{ "type": "Feature", "properties": { "OBJECTID_1": 69, "OBJECTID": 55504, "VIL_NAME_": 132.0, "VIL_NAME_I": 131.0, "VIL_NAME": "Jamjuta", "WNO": 6, "VCODE": 4, "DCODE": 22, "VDC_NAME": "Bhimeswor N.P.", "DIST_NAME": "Dolakha", "CONSTITUEN": 2.0, "ILAKA": 8, "id": 0, "Nepali": null }, "geometry": { "type": "Point", "coordinates": [ 86.065457812167836, 27.635923868597754 ] } },
{ "type": "Feature", "properties": { "OBJECTID_1": 70, "OBJECTID": 55506, "VIL_NAME_": 134.0, "VIL_NAME_I": 133.0, "VIL_NAME": "Ghogshila", "WNO": 8, "VCODE": 4, "DCODE": 22, "VDC_NAME": "Bhimeswor N.P.", "DIST_NAME": "Dolakha", "CONSTITUEN": 2.0, "ILAKA": 8, "id": 0, "Nepali": null }, "geometry": { "type": "Point", "coordinates": [ 86.050914254270978, 27.634990343375541 ] } },
{ "type": "Feature", "properties": { "OBJECTID_1": 71, "OBJECTID": 55508, "VIL_NAME_": 136.0, "VIL_NAME_I": 135.0, "VIL_NAME": "Dharmaghar", "WNO": 6, "VCODE": 4, "DCODE": 22, "VDC_NAME": "Bhimeswor N.P.", "DIST_NAME": "Dolakha", "CONSTITUEN": 2.0, "ILAKA": 8, "id": 0, "Nepali": null }, "geometry": { "type": "Point", "coordinates": [ 86.065888407049925, 27.634252735224905 ] } },
{ "type": "Feature", "properties": { "OBJECTID_1": 72, "OBJECTID": 55510, "VIL_NAME_": 138.0, "VIL_NAME_I": 137.0, "VIL_NAME": "Thuldhunga", "WNO": 6, "VCODE": 4, "DCODE": 22, "VDC_NAME": "Bhimeswor N.P.", "DIST_NAME": "Dolakha", "CONSTITUEN": 2.0, "ILAKA": 8, "id": 0, "Nepali": null }, "geometry": { "type": "Point", "coordinates": [ 86.076193759342956, 27.633056080249613 ] } },
{ "type": "Feature", "properties": { "OBJECTID_1": 73, "OBJECTID": 55514, "VIL_NAME_": 142.0, "VIL_NAME_I": 141.0, "VIL_NAME": "Kirantichhap", "WNO": 6, "VCODE": 4, "DCODE": 22, "VDC_NAME": "Bhimeswor N.P.", "DIST_NAME": "Dolakha", "CONSTITUEN": 2.0, "ILAKA": 8, "id": 0, "Nepali": null }, "geometry": { "type": "Point", "coordinates": [ 86.065197494728409, 27.629293657549045 ] } },
{ "type": "Feature", "properties": { "OBJECTID_1": 74, "OBJECTID": 71596, "VIL_NAME_": 16.0, "VIL_NAME_I": 15.0, "VIL_NAME": "Dobate", "WNO": 9, "VCODE": 30, "DCODE": 22, "VDC_NAME": "LakuriDada", "DIST_NAME": "Dolakha", "CONSTITUEN": 2.0, "ILAKA": 8, "id": 0, "Nepali": null }, "geometry": { "type": "Point", "coordinates": [ 85.955268639145473, 27.719532075271932 ] } },
{ "type": "Feature", "properties": { "OBJECTID_1": 75, "OBJECTID": 71598, "VIL_NAME_": 18.0, "VIL_NAME_I": 17.0, "VIL_NAME": "Dharedhunga", "WNO": 9, "VCODE": 30, "DCODE": 22, "VDC_NAME": "LakuriDada", "DIST_NAME": "Dolakha", "CONSTITUEN": 2.0, "ILAKA": 8, "id": 0, "Nepali": null }, "geometry": { "type": "Point", "coordinates": [ 85.961508184316131, 27.712546939569833 ] } },
{ "type": "Feature", "properties": { "OBJECTID_1": 76, "OBJECTID": 71601, "VIL_NAME_": 21.0, "VIL_NAME_I": 20.0, "VIL_NAME": "Thalnagi", "WNO": 2, "VCODE": 8, "DCODE": 22, "VDC_NAME": "Bocha", "DIST_NAME": "Dolakha", "CONSTITUEN": 2.0, "ILAKA": 8, "id": 0, "Nepali": null }, "geometry": { "type": "Point", "coordinates": [ 85.994589054078645, 27.708678366481383 ] } },
{ "type": "Feature", "properties": { "OBJECTID_1": 77, "OBJECTID": 71603, "VIL_NAME_": 23.0, "VIL_NAME_I": 22.0, "VIL_NAME": "Rolkharikhola", "WNO": 8, "VCODE": 30, "DCODE": 22, "VDC_NAME": "LakuriDada", "DIST_NAME": "Dolakha", "CONSTITUEN": 2.0, "ILAKA": 8, "id": 0, "Nepali": null }, "geometry": { "type": "Point", "coordinates": [ 85.952105485050041, 27.705800446903876 ] } },
{ "type": "Feature", "properties": { "OBJECTID_1": 78, "OBJECTID": 71604, "VIL_NAME_": 24.0, "VIL_NAME_I": 23.0, "VIL_NAME": "Kharidhunga", "WNO": 8, "VCODE": 30, "DCODE": 22, "VDC_NAME": "LakuriDada", "DIST_NAME": "Dolakha", "CONSTITUEN": 2.0, "ILAKA": 8, "id": 0, "Nepali": null }, "geometry": { "type": "Point", "coordinates": [ 85.938709582937648, 27.704922328986612 ] } },
{ "type": "Feature", "properties": { "OBJECTID_1": 79, "OBJECTID": 71605, "VIL_NAME_": 25.0, "VIL_NAME_I": 24.0, "VIL_NAME": "Thulinagi", "WNO": 2, "VCODE": 8, "DCODE": 22, "VDC_NAME": "Bocha", "DIST_NAME": "Dolakha", "CONSTITUEN": 2.0, "ILAKA": 8, "id": 0, "Nepali": null }, "geometry": { "type": "Point", "coordinates": [ 85.990728632175205, 27.705038324409575 ] } },
{ "type": "Feature", "properties": { "OBJECTID_1": 80, "OBJECTID": 71609, "VIL_NAME_": 29.0, "VIL_NAME_I": 28.0, "VIL_NAME": "Khanidanda", "WNO": 9, "VCODE": 30, "DCODE": 22, "VDC_NAME": "LakuriDada", "DIST_NAME": "Dolakha", "CONSTITUEN": 2.0, "ILAKA": 8, "id": 0, "Nepali": null }, "geometry": { "type": "Point", "coordinates": [ 85.965643092447962, 27.700582480558847 ] } },
{ "type": "Feature", "properties": { "OBJECTID_1": 81, "OBJECTID": 71610, "VIL_NAME_": 30.0, "VIL_NAME_I": 29.0, "VIL_NAME": "Chisopani", "WNO": 7, "VCODE": 30, "DCODE": 22, "VDC_NAME": "LakuriDada", "DIST_NAME": "Dolakha", "CONSTITUEN": 2.0, "ILAKA": 8, "id": 0, "Nepali": null }, "geometry": { "type": "Point", "coordinates": [ 85.947517990178568, 27.6963353833297 ] } },
{ "type": "Feature", "properties": { "OBJECTID_1": 82, "OBJECTID": 71612, "VIL_NAME_": 32.0, "VIL_NAME_I": 31.0, "VIL_NAME": "Pokhare", "WNO": 1, "VCODE": 8, "DCODE": 22, "VDC_NAME": "Bocha", "DIST_NAME": "Dolakha", "CONSTITUEN": 2.0, "ILAKA": 8, "id": 0, "Nepali": null }, "geometry": { "type": "Point", "coordinates": [ 85.991963680071251, 27.696388553853822 ] } },
{ "type": "Feature", "properties": { "OBJECTID_1": 83, "OBJECTID": 71613, "VIL_NAME_": 33.0, "VIL_NAME_I": 32.0, "VIL_NAME": "Chitre", "WNO": 7, "VCODE": 30, "DCODE": 22, "VDC_NAME": "LakuriDada", "DIST_NAME": "Dolakha", "CONSTITUEN": 2.0, "ILAKA": 8, "id": 0, "Nepali": null }, "geometry": { "type": "Point", "coordinates": [ 85.952695448793591, 27.695945987058359 ] } },
{ "type": "Feature", "properties": { "OBJECTID_1": 84, "OBJECTID": 71614, "VIL_NAME_": 34.0, "VIL_NAME_I": 33.0, "VIL_NAME": "Ahaldanda", "WNO": 7, "VCODE": 30, "DCODE": 22, "VDC_NAME": "LakuriDada", "DIST_NAME": "Dolakha", "CONSTITUEN": 2.0, "ILAKA": 8, "id": 0, "Nepali": null }, "geometry": { "type": "Point", "coordinates": [ 85.939972091355173, 27.695231022982895 ] } },
{ "type": "Feature", "properties": { "OBJECTID_1": 85, "OBJECTID": 71615, "VIL_NAME_": 35.0, "VIL_NAME_I": 34.0, "VIL_NAME": "Simalghari", "WNO": 7, "VCODE": 30, "DCODE": 22, "VDC_NAME": "LakuriDada", "DIST_NAME": "Dolakha", "CONSTITUEN": 2.0, "ILAKA": 8, "id": 0, "Nepali": null }, "geometry": { "type": "Point", "coordinates": [ 85.952686167178811, 27.692537027428301 ] } },
{ "type": "Feature", "properties": { "OBJECTID_1": 86, "OBJECTID": 71617, "VIL_NAME_": 37.0, "VIL_NAME_I": 36.0, "VIL_NAME": "Lamidanda", "WNO": 4, "VCODE": 8, "DCODE": 22, "VDC_NAME": "Bocha", "DIST_NAME": "Dolakha", "CONSTITUEN": 2.0, "ILAKA": 8, "id": 0, "Nepali": null }, "geometry": { "type": "Point", "coordinates": [ 85.99099540358003, 27.691226395284538 ] } },
{ "type": "Feature", "properties": { "OBJECTID_1": 87, "OBJECTID": 71620, "VIL_NAME_": 40.0, "VIL_NAME_I": 39.0, "VIL_NAME": "Lapse", "WNO": 4, "VCODE": 8, "DCODE": 22, "VDC_NAME": "Bocha", "DIST_NAME": "Dolakha", "CONSTITUEN": 2.0, "ILAKA": 8, "id": 0, "Nepali": null }, "geometry": { "type": "Point", "coordinates": [ 85.993006427809007, 27.686783044324034 ] } },
{ "type": "Feature", "properties": { "OBJECTID_1": 88, "OBJECTID": 71621, "VIL_NAME_": 41.0, "VIL_NAME_I": 40.0, "VIL_NAME": "Pidalubari", "WNO": 6, "VCODE": 30, "DCODE": 22, "VDC_NAME": "LakuriDada", "DIST_NAME": "Dolakha", "CONSTITUEN": 2.0, "ILAKA": 8, "id": 0, "Nepali": null }, "geometry": { "type": "Point", "coordinates": [ 85.953646593865457, 27.685674613212665 ] } },
{ "type": "Feature", "properties": { "OBJECTID_1": 89, "OBJECTID": 71622, "VIL_NAME_": 42.0, "VIL_NAME_I": 41.0, "VIL_NAME": "Okhre", "WNO": 1, "VCODE": 30, "DCODE": 22, "VDC_NAME": "LakuriDada", "DIST_NAME": "Dolakha", "CONSTITUEN": 2.0, "ILAKA": 8, "id": 0, "Nepali": null }, "geometry": { "type": "Point", "coordinates": [ 85.968363719956656, 27.684918678867177 ] } },
{ "type": "Feature", "properties": { "OBJECTID_1": 90, "OBJECTID": 71624, "VIL_NAME_": 44.0, "VIL_NAME_I": 43.0, "VIL_NAME": "Jauswara", "WNO": 6, "VCODE": 30, "DCODE": 22, "VDC_NAME": "LakuriDada", "DIST_NAME": "Dolakha", "CONSTITUEN": 2.0, "ILAKA": 8, "id": 0, "Nepali": null }, "geometry": { "type": "Point", "coordinates": [ 85.958217210890766, 27.683847820203233 ] } },
{ "type": "Feature", "properties": { "OBJECTID_1": 91, "OBJECTID": 71625, "VIL_NAME_": 45.0, "VIL_NAME_I": 44.0, "VIL_NAME": "Mandra", "WNO": 4, "VCODE": 8, "DCODE": 22, "VDC_NAME": "Bocha", "DIST_NAME": "Dolakha", "CONSTITUEN": 2.0, "ILAKA": 8, "id": 0, "Nepali": null }, "geometry": { "type": "Point", "coordinates": [ 85.9943538200055, 27.683769702077893 ] } },
{ "type": "Feature", "properties": { "OBJECTID_1": 92, "OBJECTID": 71626, "VIL_NAME_": 46.0, "VIL_NAME_I": 45.0, "VIL_NAME": "Boch", "WNO": 9, "VCODE": 8, "DCODE": 22, "VDC_NAME": "Bocha", "DIST_NAME": "Dolakha", "CONSTITUEN": 2.0, "ILAKA": 8, "id": 0, "Nepali": null }, "geometry": { "type": "Point", "coordinates": [ 85.985293514792914, 27.68302681010486 ] } },
{ "type": "Feature", "properties": { "OBJECTID_1": 93, "OBJECTID": 71630, "VIL_NAME_": 50.0, "VIL_NAME_I": 49.0, "VIL_NAME": "Moharchhap", "WNO": 8, "VCODE": 8, "DCODE": 22, "VDC_NAME": "Bocha", "DIST_NAME": "Dolakha", "CONSTITUEN": 2.0, "ILAKA": 8, "id": 0, "Nepali": null }, "geometry": { "type": "Point", "coordinates": [ 85.980032546696251, 27.680136507900396 ] } },
{ "type": "Feature", "properties": { "OBJECTID_1": 94, "OBJECTID": 71631, "VIL_NAME_": 51.0, "VIL_NAME_I": 50.0, "VIL_NAME": "Gothigaun", "WNO": 7, "VCODE": 8, "DCODE": 22, "VDC_NAME": "Bocha", "DIST_NAME": "Dolakha", "CONSTITUEN": 2.0, "ILAKA": 8, "id": 0, "Nepali": null }, "geometry": { "type": "Point", "coordinates": [ 85.989402377408794, 27.680191640913357 ] } },
{ "type": "Feature", "properties": { "OBJECTID_1": 95, "OBJECTID": 71633, "VIL_NAME_": 53.0, "VIL_NAME_I": 52.0, "VIL_NAME": "Syasi", "WNO": 2, "VCODE": 30, "DCODE": 22, "VDC_NAME": "LakuriDada", "DIST_NAME": "Dolakha", "CONSTITUEN": 2.0, "ILAKA": 8, "id": 0, "Nepali": null }, "geometry": { "type": "Point", "coordinates": [ 85.975504584434063, 27.678668241166616 ] } },
{ "type": "Feature", "properties": { "OBJECTID_1": 96, "OBJECTID": 71634, "VIL_NAME_": 54.0, "VIL_NAME_I": 53.0, "VIL_NAME": "Surke", "WNO": 6, "VCODE": 30, "DCODE": 22, "VDC_NAME": "LakuriDada", "DIST_NAME": "Dolakha", "CONSTITUEN": 2.0, "ILAKA": 8, "id": 0, "Nepali": null }, "geometry": { "type": "Point", "coordinates": [ 85.966152408236965, 27.67742787119187 ] } },
{ "type": "Feature", "properties": { "OBJECTID_1": 97, "OBJECTID": 71637, "VIL_NAME_": 57.0, "VIL_NAME_I": 56.0, "VIL_NAME": "Serabesi", "WNO": 6, "VCODE": 8, "DCODE": 22, "VDC_NAME": "Bocha", "DIST_NAME": "Dolakha", "CONSTITUEN": 2.0, "ILAKA": 8, "id": 0, "Nepali": null }, "geometry": { "type": "Point", "coordinates": [ 85.996145104131728, 27.674641095598965 ] } },
{ "type": "Feature", "properties": { "OBJECTID_1": 98, "OBJECTID": 71638, "VIL_NAME_": 58.0, "VIL_NAME_I": 57.0, "VIL_NAME": "Dadagaun", "WNO": 3, "VCODE": 30, "DCODE": 22, "VDC_NAME": "LakuriDada", "DIST_NAME": "Dolakha", "CONSTITUEN": 2.0, "ILAKA": 8, "id": 0, "Nepali": null }, "geometry": { "type": "Point", "coordinates": [ 85.972570070963187, 27.671447412355064 ] } },
{ "type": "Feature", "properties": { "OBJECTID_1": 99, "OBJECTID": 71640, "VIL_NAME_": 60.0, "VIL_NAME_I": 59.0, "VIL_NAME": "Bhandare", "WNO": 3, "VCODE": 30, "DCODE": 22, "VDC_NAME": "LakuriDada", "DIST_NAME": "Dolakha", "CONSTITUEN": 2.0, "ILAKA": 8, "id": 0, "Nepali": null }, "geometry": { "type": "Point", "coordinates": [ 85.967615445529574, 27.667466988712558 ] } },
{ "type": "Feature", "properties": { "OBJECTID_1": 100, "OBJECTID": 71642, "VIL_NAME_": 62.0, "VIL_NAME_I": 61.0, "VIL_NAME": "Lisepani", "WNO": 4, "VCODE": 30, "DCODE": 22, "VDC_NAME": "LakuriDada", "DIST_NAME": "Dolakha", "CONSTITUEN": 2.0, "ILAKA": 8, "id": 0, "Nepali": null }, "geometry": { "type": "Point", "coordinates": [ 85.959717024867757, 27.665575999480708 ] } },
{ "type": "Feature", "properties": { "OBJECTID_1": 101, "OBJECTID": 71646, "VIL_NAME_": 66.0, "VIL_NAME_I": 65.0, "VIL_NAME": "Bhirmuni", "WNO": 4, "VCODE": 30, "DCODE": 22, "VDC_NAME": "LakuriDada", "DIST_NAME": "Dolakha", "CONSTITUEN": 2.0, "ILAKA": 8, "id": 0, "Nepali": null }, "geometry": { "type": "Point", "coordinates": [ 85.96078765067972, 27.662120978206726 ] } }
]
}
